{
   "type": "FeatureCollection",
   "features": [
  {
    "type": "Feature",
    "geometry": {
       "type": "Point",
       "coordinates":  [ 121.52964,25.0416417 ]
    },
    "properties": {
    "機構":"中正區社區心理衛生中心",
    "行政區":"中正區",
    "地址":"臺北市中正區金山南路一段5號",
    "電話":"02-3393-6779"
    }
  },
  {
    "type": "Feature",
    "geometry": {
       "type": "Point",
       "coordinates":  [ 121.4976369,25.0231742 ]
    },
    "properties": {
    "機構":"萬華區社區心理衛生中心",
    "行政區":"萬華區",
    "地址":"臺北市萬華區東園街152號B棟",
    "電話":"02-2303-3611"
    }
  },
  {
    "type": "Feature",
    "geometry": {
       "type": "Point",
       "coordinates":  [ 121.5700826,24.98964 ]
    },
    "properties": {
    "機構":"文山區社區心理衛生中心",
    "行政區":"文山區",
    "地址":"臺北市文山區木柵路三段220號3樓",
    "電話":"02-2234-3501"
    }
  },
  {
    "type": "Feature",
    "geometry": {
       "type": "Point",
       "coordinates":  [ 121.5379795,25.0546054 ]
    },
    "properties": {
    "機構":"財團法人臺北市賽珍珠基金會",
    "行政區":"中山區",
    "地址":"臺北市中山區長春路232號4樓",
    "電話":"02-2504-8088轉26"
    }
  },
  {
    "type": "Feature",
    "geometry": {
       "type": "Point",
       "coordinates":  [ 121.5196395,25.0263306 ]
    },
    "properties": {
    "機構":"社團法人臺灣新住民家庭成長協會",
    "行政區":"中正區",
    "地址":"臺北市中正區和平西路一段56號4樓之5",
    "電話":"02-2369-1001"
    }
  }
]
}